#---
# File created using
#---

~Version
 VERS.                  3.0   : LAS Version Identifier
 WRAP.                   NO   : WRAP mode - one line per depth step
 DLM .                  TAB   : Column Data Section Delimiter

~Well
 STRT.ft               1000.0   : First index value       {F}
 STOP.ft                  0.0   : Last index value        {F}
 STEP.ft                 -0.0   : STEP of index
 NULL.              -999.25   : NULL value

 SDATE. 15/Jun/2023 22;30;52   : Data Start Date        {DD/MMM/YYYY hh;mm;ss}
 EDATE. 15/Jun/2023 22;30;52   : Data End Date        {DD/MMM/YYYY hh;mm;ss}
 SDEPTH.ft             10387.37   : Data Start Depth        {F}
 EDEPTH.ft             10387.37   : Data End Depth        {F}

 API.         11-222-33333  : API Number
 CNTY.               Wellington  : County
 COMP.        My test comp  : Oil Company
 CTRY.                   NZ   : Country
 DATE.          20 May 2022   : Spud Date
 DRL_CO.                Total   : Dir. Company
 DipQ.deg                  1.0   : Dip QA Limit
 EEL.ft               222.20   : Ground Level Elevation
 FLD.          Some test data   : Field
 GAMA_DATE.          20 May 2022   : Gamma Logging Start Date
 GAMA_ENABLED.       Yes   : Pay Day Rate for Gamma Logging
 JOBN.             GB222222   : Job Number
 TIME.           NZ   : Local Time Zone
 WELL.           Test well H425   : Well Name

#---
# The following 3 missing fields
#---
 LOC.                        : Location
 GDAT.                        : Geodetic Datum
 UWI.                        : Unique Well Identifier


~Parameter
#MNEM.UNIT              Value                              Description
#---------  ----------------------------------------   -----------------------------------
RUN .                                         1  : Run number
GL  .Ft                             1363.000000  : Ground level elevation
DREF.                                        KB  : Depth reference

~Curve
 TRACK
 Survey
 DEPT.ft                        : Measured Depth. {F}
 INCL.deg                       : MWD field INC   {F}
 AZM.deg                        : MWD field AZM     {F}
 TVD.ft                         : MWD field TVD     {F}

~Ascii
	1	1	102.64	19.61	160.83	260.35	-517.79	164.16	-1013.53	2.27
	1	1	294.69	9.59	93.23	260.52	-211.19	82.19	-737.32	0.38
	1	1	514.36	1.56	120.26	321.49	-319.84	571.76	-287.22	3.46
	1	1	553.48	13.62	40.64	329.19	-469.66	569.22	-1245.24	0.76
	1	1	564.19	13.78	153.49	404.69	-616.3	31.98	-1254.75	1.35
	1	1	635.56	6.71	258.02	507.48	-140.45	344.13	-43.31	0.35
	1	1	883.79	11.96	172.16	612.58	-394.94	39.54	-99.61	0.17
	1	1	908.95	1.67	166.62	658.15	-242.57	510.15	-1327.97	0.68
	1	1	1055.88	5.33	195.12	723.37	-577.26	230.8	-175.71	0.2
	1	1	1183.02	5.45	205.28	813.5	-527.19	564.28	-75.3	1.19
	1	1	1234.05	5.84	269.6	928.59	-213.8	493.48	-1514.26	2.75
	1	1	1251.15	0.01	35.28	940.69	-209.54	114.08	-181.19	3.64
	1	1	1284.1	1.21	105.41	954.25	-512.07	175.99	-669.98	1.5
	1	1	1288.07	11.97	269.91	1050.98	-181.06	500.36	-1346.9	2.53
	1	1	1423.8	18.9	125.58	1100.46	-177.91	499.24	-182.58	0.55
	1	1	1743.1	0.49	121.59	1117.15	-620.78	246.04	-1336.75	1.12
	1	1	1823.24	13.41	50.2	1190.87	-349.32	128.3	-818.08	1.9
	1	1	2312.19	2.31	235.8	1237.49	-381.14	252.37	-922.18	1.37
	1	1	2432.48	1.65	280.26	1318.39	-507.94	181.39	-218.85	1.68
	1	1	2567.88	12.94	102.1	1355.73	-81.77	551.98	-1388.46	1.19
	1	1	2724.55	16.24	52.06	1385.68	-577.39	62.47	-1280.05	0.22
	1	1	2819.57	2.8	212.31	1386.94	-529.93	199.01	-992.09	2.63
	1	1	2829.94	12.48	44.48	1437.33	-49.92	536.82	-951.03	0.2
	1	1	2894.14	11.58	191.08	1644	-287.52	361.24	-669.2	0.21
	1	1	2938.78	15.21	219.38	1763.46	-356.47	428.99	-1068.13	1.41
	1	1	3043.25	17.18	257.01	1799.74	-580.31	280.56	-367.93	0.37
	1	1	3059.09	7.35	178.28	1881.47	-219.59	308.12	-819.85	1.92
	1	1	3195.06	13.81	133.64	1902.2	-106.22	107.33	-551.32	1.53
	1	1	3319.98	1.06	234.91	2157.76	-152.59	338.8	-1309.78	3.44
	1	1	3326.28	5.54	203.82	2175.47	-313.4	533.05	-1111.78	2.75
	1	1	3340.28	9.03	295.77	2631.15	-472.44	395.72	-1147.27	2.48
	1	1	3345.76	0.62	17.3	2652.99	-593.38	493.65	-1390.5	1.97
	1	1	3395.4	16.76	132.06	2679.36	-353.73	63.85	-222.21	3.65
	1	1	3504.65	10.1	24.35	2734.28	-444.16	218.36	-1087.5	0.99
	1	1	3617.86	1.15	153.55	2808.12	-283.01	35.51	-1335.34	1.18
	1	1	3711.99	17.71	155.55	3384.88	-492.38	138.09	-921.27	0.81
	1	1	3767.67	0.49	161.13	3508.7	-93.97	266.15	-520.99	2.13
	1	1	3854.1	1.89	254.48	3696.2	3.25	433.56	-1624.09	3.21
	1	1	3952.33	8.21	92.94	3747.75	-579.39	549.75	-519.71	2
	1	1	4054.65	18.53	106.4	3849.4	-21.83	427.95	-220.04	1.43
	1	1	4094	9.16	227.28	3949.48	-303.44	124.92	-1315.24	3.53
	1	1	4166.2	19.98	12.06	3969.17	-482.91	64.17	-557.32	1.1
	1	1	4355.18	17.24	8.19	4015.34	-66.06	266.64	-1635.92	0.79
	1	1	4480.91	6.66	81.4	4065.35	-185.51	268.38	-376.17	3
	1	1	4492.26	5.72	228.86	4136.42	-529.99	436.95	-154.81	3.63
	1	1	4566.24	9.61	116.69	4273.36	-214.52	265.2	-664.45	1.32
	1	1	4571.82	20.56	107.29	4581.49	-115.12	69.47	-491.32	1.09
	1	1	4623.34	9.87	144.97	4758.7	-286.3	169.83	-73.76	3.67
	1	1	4695.03	4.87	273.75	4834.35	-125.5	235.95	-186.73	0.96
	1	1	4811.15	8.83	72.89	4871.95	-238.9	410.47	-865.65	0.28
	1	1	4816.89	10.4	304.28	5044.83	-53.23	375.84	-742.91	0.18
	1	1	4846.73	4.54	125.91	5168.04	-310.2	427.43	-1405.57	3.13
	1	1	4874.44	20.01	81.49	5226.86	-124.62	61.64	-1364.85	2.76
	1	1	5134.74	9.67	292.83	5367.7	-367.75	239.44	-850.02	0.3
	1	1	5258.15	19.18	208.2	5646.08	-549.2	434.1	-1091.22	0.41
	1	1	5259.17	2.5	214.01	5663.52	-299.36	430.33	-1613.4	2.13
	1	1	5341.92	1.41	258.72	5764.13	-557.42	456.04	-1171.18	1.67
	1	1	5367.24	4.96	36.1	5802.48	-624.93	332.48	-1230.26	0.32
	1	1	5368.16	13.07	304.07	6039.75	-11.01	443.55	-739.36	1.51
	1	1	5368.24	2.3	41.84	6077.03	-352.09	531.09	-1234.25	2.41
	1	1	5410.95	15.67	223.16	6150.79	-406.31	490.65	-609.82	1.41
	1	1	5444.48	13.76	166.53	6172.47	-128.44	270.18	-1404.2	1.61
	1	1	5490.11	7.71	36.61	6201.22	-347.47	162.06	-730.02	1.24
	1	1	5598.31	14.08	60.58	6523.62	-267.76	492.59	-466.01	1.01
	1	1	5763.47	8.42	115.29	6529.27	-344.01	140.11	-1067.36	3
	1	1	5861.36	5.58	113.26	6610.41	-48.75	212.67	-672.85	2.87
	1	1	5932.11	15.72	141.82	6654.51	-596.76	359.72	-338.02	1.67
	1	1	6106.9	19.47	259.14	6667.33	-137.82	502.91	-48.32	1.95
	1	1	6158.61	8.51	260.54	6702.38	-324.44	376.19	-281.56	3.41
	1	1	6230.9	13.68	20.4	6991.4	-549.42	103.64	-1000.93	2.39
	1	1	6291.28	18.44	169.81	7071.14	-507.18	24.37	-418.07	2.23
	1	1	6711.34	8.4	274.98	7099.04	-469.24	111.56	-1523.59	3.48
	1	1	6727.41	7.99	238.3	7134.06	-249.33	106.78	-604.94	1.62
	1	1	6744.05	4.34	26.2	7511.85	-118.03	131.59	-1051.67	1.27
	1	1	6750.05	9.1	296.79	7517.39	-325.41	256.98	-273.74	0.59
	1	1	6824.78	4.49	238.81	7522.64	-149.97	388.37	-471.59	3.36
	1	1	7103.76	2.51	217.05	7551.69	-317.23	336.48	-645.78	0.84
	1	1	7265.09	6.63	209.07	7568.59	-89.82	368.68	-139.89	3.6
	1	1	7389.01	13.59	56.31	7593.93	-558.01	0.03	-888.39	0.72
	1	1	7448.96	5.04	64.6	7640.5	-41.23	381.13	-670.2	3.63
	1	1	7807.4	20.6	292.83	7657.79	-15.89	145.68	-1488.92	2.95
	1	1	7845.42	3.27	152.78	7732.58	-603.2	267.27	-1206.01	1.98
	1	1	7994.05	18.4	142.12	7852.13	-351.5	522.9	-664.86	0.71
	1	1	8113.87	8.87	168.73	8055.97	-543.89	490.69	-991.27	3.2
	1	1	8244.89	3.44	77.49	8079.33	-39.11	459.1	-741.06	3.11
	1	1	8338.49	7.34	123.15	8091.8	-357.76	268.98	-1103.68	2.01
	1	1	8498.54	12.6	279.6	8257.96	-621.99	514.97	-1278.19	0.53
	1	1	8523.71	11.42	186.44	8334	-595.98	409.87	-309.36	0.76
	1	1	8535.46	13.5	116.75	8409.92	-442.1	78.07	-1135.66	2.23
	1	1	8592.73	11.93	253.32	8500.13	-395.65	309.45	-1022.92	2.81
	1	1	8932.55	11.4	87.75	8578.4	-59.97	309.21	-309.24	2.11
	1	1	9175.35	9.87	241.36	8582.25	-13.53	422.42	-1323.31	3.39
	1	1	9193.86	0.83	259.21	8633.41	-206.77	6.04	-221.02	0.6
	1	1	9207.67	14.42	100.54	8801.56	-353.78	232.69	-499.13	3.13
	1	1	9344.05	10.17	190.96	8824.06	-557.67	204	-1399.92	1.18
	1	1	9469.21	2.13	58	9049.33	-219.34	126.77	-668.52	0.38
	1	1	9470.94	18.81	170.65	9066.65	-195.37	498.81	-628.3	0.9
	1	1	9499.61	19.11	212.24	9139.85	-461.98	141.58	-491.72	0.16
	1	1	9643.72	11.08	85.58	9258.06	-99.76	209.94	-170.06	0.14
	1	1	9833.36	12.3	173.43	9272.8	-144.43	16.9	-1009.52	0.54
	1	1	10054.41	20.29	37.43	9483.17	-199.12	495.18	-1018.79	0.71
	1	1	10172.88	11.78	271.56	9562.95	-185.89	174.14	-365.57	2.18
	1	1	10173.65	5.63	266.99	9597.97	-480.63	417.16	-193.32	2.71
	1	1	10299.75	7.52	244.55	9865.49	-364.23	348.83	-508.39	0.95
	1	1	10307.13	4.97	225.62	10024.81	-488.12	304.52	-935.1	0.31
