#---
# File created using
#---

~Version
 VERS.                  3.0   : LAS Version Identifier
 WRAP.                   NO   : WRAP mode - one line per depth step
 DLM .                  TAB   : Column Data Section Delimiter

~Well
 STRT.ft               6600.0   : First index value       {F}
 STOP.ft              15120.0   : Last index value        {F}
 STEP.ft                  0.25   : STEP of index
 NULL.              -999.25   : NULL value

 SDATE. 27/Jul/2023 10;01;02   : Data Start Date        {DD/MMM/YYYY hh;mm;ss}
 EDATE. 03/Aug/2023 04;26;04   : Data End Date        {DD/MMM/YYYY hh;mm;ss}
 SDEPTH.ft               6600.0   : Data Start Depth        {F}
 EDEPTH.ft             15120.00   : Data End Depth        {F}

 API.       11-222-33333   : API Number
 CNTY.                  Noy   : County
 COMP.      XYZ Company, Inc   : Oil Company
 COMP_REP.           Noy Becker   : Client Rig-Site Representative
 CTRY.                  USA   : Country
 DRL_CO.   Noy Energy Partners   : Dir. Company
 LATI.deg          28.8457844   : Latitude
 LATIY.            683250.88   : Y (Northing)
 LONG.deg        -108.63462414   : Longitude
 LONGX.            834582.27   : X (Easting)
 RIG.        RIG 486   : Rig Name
 RIG_EEL.ft               4681.0   : Rig Floor Elevation
 RIG_RDF.ft                   28   : RKB to Ground
 SRVC.    Noy Technologies LLC   : Service Company
 STAT.           Louisiana   : State
 TIME.           US/Central   : Local Time Zone
 WELL. Thunder well 128W   : Well Name

#---
# The following 6 missing fields
#---
 FLD.                        : Field
 LOC.                        : Location
 DATE.                        : Service Date        {DD/MMM/YYYY hh;mm;ss}
 GDAT.                        : Geodetic Datum
 UWI.                        : Unique Well Identifier
 PROV.                        : Province


~Parameter
#MNEM.UNIT              Value                              Description
#---------  ----------------------------------------   -----------------------------------
RUN .                                         1  : Run number
GL  .Ft                             1363.000000  : Ground level elevation
DREF.                                        KB  : Depth reference

~Curve
 DEPT.ft                        : Measured Depth. {F}
 TVD.ft                        : MWD field TVD     {F}
 GAMA.API                        : MWD field GAMA     {F}
 TEMP.F                        : MWD field TEMP     {F}
 SLD.RPM                        : MWD field SLIDE     {F}
 INC.deg                        : MWD field INC     {F}
 DINC.deg                        : MWD field LINC     {F}
 ARPM.RPM                        : MWD field ARPM     {F}
 DRPM.RPM                        : MWD field DRPM     {F}
 SRPM.RPM                        : MWD field RPM.W     {F}
 LAZM.deg                        : MWD field LAZM     {F}
 AZM.deg                        : MWD field AZM     {F}
 ROP.ft/hr                        : MWD field ROP     {F}

~Ascii
# ...
	5844.98	5815.53	-287.07	123.43	36.88	7.15	8.98	56.59	136.72	29.55	76.78	48.22	389.76
	5845.54	5816.17	-123.42	123.93	32.07	6.9	6.5	53.18	125.56	43.9	76.87	48.35	231.92
	5845.87	5816.25	-490.62	128.32	81.67	8.45	6.95	63.97	133.55	37.25	76.92	48.47	134.66
	5846.21	5816.33	81.49	129.3	14.43	7.17	8.8	45.41	142.68	24.67	76.94	48.5	257.37
	5846.86	5817.27	79.96	130.72	55.92	8.45	7.35	57.04	125.05	29.51	77	48.97	337.15
	5847.15	5817.94	32.04	122.74	10.27	7.54	7.39	35.68	132.4	20.75	77	49.27	286.6
	5848.18	5818.3	-136.81	126.47	66.19	7.56	7.37	56.28	125.34	3.28	77.05	49.44	143.26
	5848.48	5818.45	-476.24	125.24	1.21	7.52	8.68	53.53	126.3	68.24	77.06	49.46	55.37
	5848.84	5818.75	-647.94	125.7	52.59	8.18	8.62	33.3	128.99	73.53	77.07	49.73	115.58
	5849.47	5819.04	-907.53	124.3	50.52	7.09	6.9	47.12	137.54	18.72	77.09	49.9	223.77
	5849.69	5820.44	-756.86	125.83	72.28	7.75	8.56	51.88	133.26	62.65	77.24	50.06	140.89
	5850.34	5820.6	-858.7	128	5.49	8.33	8.66	15.36	142.24	38.07	77.26	50.09	171.92
	5851.43	5820.77	-149.63	128.67	25.1	7.64	7.2	12.31	136.57	17.85	77.32	50.41	21
	5851.83	5821.22	-415.08	127.23	41.34	8.06	8.19	2.95	126.39	26.26	77.38	50.42	225.8
	5852.03	5822.17	-926.98	128.88	5.43	6.93	8.59	5.3	126.89	51.79	77.4	50.8	400.63
	5852.16	5822.39	-210.12	130.19	36.08	7.76	7.08	49.07	129.82	50.07	77.45	50.86	191.86
	5852.7	5823.14	-15.16	126.44	68.94	7.86	8.88	8.94	123.24	75.85	77.58	50.87	209.71
	5853.14	5824.45	-546.84	123.05	43.58	8.17	6.98	36.33	135.76	22.92	77.59	51.01	234.29
	5853.51	5825.02	-307.09	125.59	44.99	7.47	8.8	42.58	122.43	80.64	77.63	51.08	199.9
	5854.21	5825.88	-856.28	127.87	3.81	8.53	6.72	59.12	135.97	21.44	77.74	51.11	204.69
	5855.02	5826.29	-351.12	122.57	57.91	7.38	7.69	64.98	138.03	77.26	77.79	51.29	328.85
	5855.51	5826.37	-833.25	128.06	16.33	8.57	7.95	44.58	136.5	41.55	77.87	51.34	364.47
	5855.69	5826.4	-543.71	121.67	65.19	8.02	6.57	43.65	123.29	53.44	77.97	51.56	266.49
	5855.77	5828.74	-210.43	126.12	6.06	7.81	7.13	45.76	129.77	15.68	77.99	51.88	251.57
	5856.25	5828.91	-774.94	126.86	19.46	7.26	6.75	2.1	139.92	2.94	78	52.09	103.22
	5856.42	5828.97	-520.82	123.31	26.58	7.92	8.39	19.16	128.27	16.37	78.01	52.23	29.48
	5856.56	5829.66	-657.06	127.35	34.03	7.07	6.6	40.31	128.78	52.19	78.02	52.35	319
	5856.66	5829.72	-334.72	127.18	78.98	8.07	8.34	18.18	124.54	66.09	78.08	52.76	402.84
	5856.89	5830.5	-922.96	121.9	81.23	8.28	7.39	59.31	134.32	47.59	78.09	52.8	222
	5857.42	5830.66	-937.1	130.21	34.81	7.44	7.55	31.41	121.52	53.11	78.1	52.84	101.28
	5857.59	5830.75	-344.97	127.33	3.57	7.15	8.96	32.14	131.58	11.14	78.15	52.94	127.79
	5858.06	5831.28	-798.64	130.49	21.94	7.05	8.09	2.87	140.38	80.43	78.21	52.99	202.04
	5858.77	5831.92	-573.11	121.41	67.84	7.55	8.44	11.84	135.97	35.02	78.34	53.08	392.11
	5859.04	5831.93	-785.42	129.8	32.28	8.02	7.06	57.78	127.23	74.95	78.35	53.08	379.46
	5859.34	5832.52	-910.85	123.67	80.98	8.23	7.03	66.05	139.4	57.26	78.37	53.22	129.08
	5859.84	5833.21	-107.89	121.81	53.17	7.58	7.9	48.23	136.9	9.13	78.43	53.38	346.08
	5860.18	5834.11	-173.89	125.19	12.01	7.58	7.31	38.4	132.33	6.5	78.49	53.48	164.6
	5860.84	5834.29	-468.08	127.24	37.31	7.19	7.31	51.16	128.86	10.8	78.49	53.59	123.6
	5860.9	5834.3	94.09	129.26	55.58	8.55	7.8	24.33	138.42	79.05	78.56	53.73	113.03
	5860.9	5834.33	69.68	128.76	62.03	8.31	6.76	30.84	122.34	56.03	78.57	54.05	191
	5862.07	5836.23	-387.33	121.62	13	7.97	6.6	59.41	121.62	15.55	78.62	54.26	319.8
	5862.5	5836.74	-821.76	125.99	50.25	7.21	8.76	22.99	127.94	76.6	78.76	54.28	124.88
	5862.89	5836.9	-265.89	129.19	32.55	8.26	7.23	28.21	133.04	58.79	78.76	54.39	182.82
	5863.59	5836.92	-799.77	129.97	49.36	8.17	7.6	24.66	138.09	61.23	78.89	54.47	202.97
	5863.65	5836.99	-317.4	130.27	41.4	7.75	6.5	25.9	126.7	2.5	79.04	54.7	287.88
	5864.24	5837.12	-457.15	127.35	16.87	6.99	7.16	29.35	125.24	81.27	79.04	54.89	375.24
	5866.33	5837.71	24.17	124.85	15.43	7.32	8.87	0.68	136.2	23.18	79.08	54.96	322.3
	5867.45	5838.18	-467.18	120.46	11.6	8.3	7.76	48.57	133.44	1.81	79.1	55.07	240.85
	5868.88	5838.32	-167.47	123.17	26.44	7.79	6.63	17.07	143.03	61.73	79.1	55.16	357.67
	5869.11	5838.63	-266.82	120.65	14.86	6.94	6.64	13.99	138.23	29.93	79.14	55.17	307.7
	5869.15	5838.78	-526.09	130.77	24.72	7.2	7.09	6.5	132.25	53.18	79.14	55.27	67.57
	5869.85	5838.93	-879.35	126.99	62.84	7.66	8.11	27.71	136.69	58.66	79.21	55.3	178.11
	5870.22	5839.44	-882.54	129.2	23.83	7.51	7.15	15.62	124.56	69.95	79.3	55.46	39.37
	5870.52	5839.9	-70.84	124.66	39.23	7.13	6.67	60.77	125.57	73.9	79.32	55.51	108.81
	5870.88	5839.91	-204.88	129.09	7.24	7.21	7.32	14.55	134	63.64	79.35	55.56	236.19
	5870.91	5840.82	-51.6	123.71	14.24	8.23	6.73	44.07	133.38	40.34	79.46	55.58	341.09
	5871.42	5841.1	-15.15	124.62	4.6	6.96	7.1	5.07	139.83	11.06	79.52	55.64	20.58
	5871.76	5841.38	66.73	130.08	81.8	7.85	8.19	63.64	126.41	52.4	79.92	55.71	296.74
	5871.88	5841.81	-176.35	129.22	65.84	7.52	6.5	20.49	137.72	10.14	80.14	55.83	275.04
	5872.16	5842.19	-968.97	121.04	4.41	7.43	6.58	25.11	136.2	2.36	80.2	56.06	10.37
	5872.83	5842.35	24.79	128.33	9	8.54	6.57	49.71	132.17	80.79	80.3	56.35	211.38
	5873.12	5842.36	-37.97	130.2	62.08	7.92	7.43	47.89	124.16	2.14	80.35	56.36	313.94
	5874	5842.67	-234.22	126.28	48.69	8	7.33	36.49	136.86	78.25	80.37	56.5	176.04
	5875.01	5843.15	-744.65	126.04	11.29	7.72	8.67	14.23	132.05	53.56	80.4	56.51	365.7
	5875.13	5843.29	-417.2	127.89	72.07	8.44	7.37	45.06	142.76	13.16	80.4	56.62	348.29
	5875.65	5843.84	-722.58	126.96	1.98	7.78	8.99	23.49	138.71	54	80.45	56.66	104.21
	5875.85	5844.26	-241.18	127.61	1.32	8.47	8.37	4	123	45.87	80.47	56.67	167.82
	5876.21	5844.43	-337.62	124.77	6.59	7.66	8.06	25.12	134.67	7.61	80.47	56.68	307.01
	5876.74	5844.54	-433.14	124.34	43.2	6.97	7.39	32.25	130.9	43.47	80.49	56.9	164.02
	5877.51	5844.95	-482.61	124.63	7.63	8.32	8.7	5.99	140.1	6.11	80.57	56.93	226.93
	5877.58	5845.32	-824.56	122.74	15.58	8.51	7.57	23.29	139.35	46.08	80.6	57.13	77.59
	5877.86	5845.37	-204.19	129.71	34.31	7.02	6.5	21.71	142.15	11.47	80.71	57.2	21.23
	5879.31	5845.87	-281.78	125.83	50.66	8.01	8.05	38.71	133.24	70.83	80.72	57.38	292.71
	5879.95	5846.21	-775.64	130.24	45.29	8.42	7.35	27.95	131.78	82.08	80.82	57.57	187.5
	5880.33	5846.22	-312.09	128.26	65.77	7.08	8.7	55.08	121.82	42.84	80.83	57.58	332.45
	5880.37	5846.59	-626.26	121.69	39.54	7.48	8.18	45.18	130.92	50.54	80.91	57.61	5.88
	5881.29	5847.56	-418.02	120.43	37.8	7.71	7.95	15.94	130.89	78.01	80.97	57.63	359.67
	5882.36	5847.79	-638.05	123.89	8.19	7.71	7.45	65.47	136.02	4.67	81.21	57.68	299.58
	5883.45	5847.9	-189.55	127.57	80.81	7.81	6.51	17.82	135.05	74.3	81.23	57.72	146.74
	5883.46	5848.56	-998.42	125.57	20.47	8.45	6.6	37.44	130.15	6.19	81.25	57.82	299.24
	5884.44	5849.36	-902.88	127.58	17.92	6.9	6.5	54.25	125.13	9.52	81.34	57.94	276.9
	5885.55	5849.72	-121.05	123.49	17.86	7.94	8.31	65.8	128.89	63.24	81.35	58.02	341.21
	5885.62	5849.77	-96.42	125	77.12	8.53	8.85	9.22	140.07	63.07	81.37	58.51	266.46
	5885.79	5850.49	-348.1	120.96	53.41	7.09	8.05	29.72	131.57	42.54	81.45	58.6	93.75
	5885.79	5850.69	-83.38	122.95	25.03	8.61	7.17	61.68	124.36	16.37	81.47	58.6	89.26
	5886.62	5850.83	-618.48	124.68	26.98	7.85	7.95	51.63	121.44	4.95	81.55	58.63	70.7
	5886.86	5851.02	24.64	124.93	3.31	7.28	7.96	47.31	139.89	42.02	81.58	58.76	302.45
	5887.07	5851.83	-226.5	125.08	60.87	7.19	8.07	25.72	137.38	40.52	81.66	58.84	312.4
	5887.98	5852.36	32.58	128.89	27.86	7.82	6.88	54.06	125.31	1.48	81.68	58.99	55.48
	5888.29	5854.06	-771.94	120.31	37.45	8.43	8.43	28.88	121.87	45.59	81.71	59	105.46
	5888.75	5854.13	-479.6	123.97	58.21	6.98	6.61	52.19	133.35	26.14	81.96	59.04	126.45
	5890.03	5854.42	-579.35	122.36	65.31	8.57	6.92	56.71	139.74	20.11	81.98	59.23	333.19
	5890.18	5854.82	-766.28	127.9	3.67	7.98	8.5	12.43	124.93	28.6	82.03	59.39	376.54
	5890.24	5855.32	-664.85	121.26	57.08	8.29	7.42	22.14	137.19	66.72	82.05	59.4	28.37
	5890.48	5855.56	-304.18	120.63	36.9	8.13	8.27	10.83	129.5	51.85	82.06	59.51	140.46
	5891.03	5856.13	-171.06	124.37	10.24	7.51	8.4	5.7	135.03	47.15	82.1	59.62	186.48
	5891.68	5856.13	-155.45	127.46	79.43	7.47	8.35	50.12	137.25	37.13	82.13	59.63	183.23
