#---
# File created using
#---

~Version
 VERS.                  3.0   : LAS Version Identifier
 WRAP.                   NO   : WRAP mode - one line per depth step
 DLM .                  TAB   : Column Data Section Delimiter

~Well
 STRT.ft               6600.0   : First index value       {F}
 STOP.ft              15120.0   : Last index value        {F}
 STEP.ft                  0.25   : STEP of index
 NULL.              -999.25   : NULL value

 SDATE. 27/Jul/2023 10;01;02   : Data Start Date        {DD/MMM/YYYY hh;mm;ss}
 EDATE. 03/Aug/2023 04;26;04   : Data End Date        {DD/MMM/YYYY hh;mm;ss}
 SDEPTH.ft               6600.0   : Data Start Depth        {F}
 EDEPTH.ft             15120.00   : Data End Depth        {F}

 API.       11-222-33333   : API Number
 CNTY.                  Noy   : County
 COMP.      XYZ Company, Inc   : Oil Company
 COMP_REP.           Noy Becker   : Client Rig-Site Representative
 CTRY.                  USA   : Country
 DRL_CO.   Noy Energy Partners   : Dir. Company
 LATI.deg          28.8457844   : Latitude
 LATIY.            683250.88   : Y (Northing)
 LONG.deg        -108.63462414   : Longitude
 LONGX.            834582.27   : X (Easting)
 RIG.        RIG 486   : Rig Name
 RIG_EEL.ft               4681.0   : Rig Floor Elevation
 RIG_RDF.ft                   28   : RKB to Ground
 SRVC.    Noy Technologies LLC   : Service Company
 STAT.           Louisiana   : State
 TIME.           US/Central   : Local Time Zone
 WELL. Thunder well 128W   : Well Name

#---
# The following 6 missing fields
#---
 FLD.                        : Field
 LOC.                        : Location
 DATE.                        : Service Date        {DD/MMM/YYYY hh;mm;ss}
 GDAT.                        : Geodetic Datum
 UWI.                        : Unique Well Identifier
 PROV.                        : Province


~Parameter
#MNEM.UNIT              Value                              Description
#---------  ----------------------------------------   -----------------------------------
RUN .                                         1  : Run number
GL  .Ft                             1363.000000  : Ground level elevation
DREF.                                        KB  : Depth reference

~Curve
 DEPT.ft                        : Measured Depth. {F}
 TVD.ft                        : MWD field TVD     {F}
 GAMA.API                        : MWD field GAMA     {F}
 TEMP.F                        : MWD field TEMP     {F}
 SLD.RPM                        : MWD field SLIDE     {F}
 INC.deg                        : MWD field INC     {F}
 DINC.deg                        : MWD field LINC     {F}
 ARPM.RPM                        : MWD field ARPM     {F}
 DRPM.RPM                        : MWD field DRPM     {F}
 SRPM.RPM                        : MWD field RPM.W     {F}
 LAZM.deg                        : MWD field LAZM     {F}
 AZM.deg                        : MWD field AZM     {F}
 ROP.ft/hr                        : MWD field ROP     {F}

~Ascii
# ...
	5892.01	5856.63	-508.28	127.6	67.3	7.17	8.43	65.1	139.16	56.15	82.23	60.16	121.46
	5892.09	5856.78	-743.86	124.9	58.18	7.48	8.7	25.49	129.77	28.64	82.3	60.17	292.83
	5892.37	5856.95	-467.43	127	71.98	7.55	7.48	33.26	142.22	50.16	82.39	60.62	100.78
	5892.51	5857.18	-970.17	122.21	48.05	7	7.14	2.86	140.03	10.54	82.49	60.76	251.36
	5893.16	5857.45	-784.25	123.51	24.24	8.32	6.99	9.71	132.59	45.02	82.52	60.87	240.61
	5893.33	5857.7	-304.03	122.3	81.83	8.39	9.03	61.65	134.25	64.67	82.53	60.97	106.37
	5893.62	5857.92	-908.23	120.4	36.39	7.53	6.86	59.51	143.19	66.68	82.59	61.04	296.09
	5894.07	5858.36	-218.91	122.82	24.06	7.15	6.97	14.78	137.5	61.84	82.64	61.09	277.04
	5895.3	5858.41	53.52	125.24	40.74	8.07	6.98	68.1	121.19	74.25	82.67	61.11	183.14
	5895.43	5858.56	-938.7	127.69	81.69	7.63	7.26	25.59	133.3	44.4	82.71	61.33	103.23
	5895.61	5860.46	-877.97	130.34	67.58	7.73	7.16	59.29	128.5	72.55	82.73	61.7	291.85
	5895.62	5860.66	57.32	126.6	76.92	7.76	7.39	10.84	121.88	40.51	82.84	61.72	181.65
	5896.6	5860.95	-302.97	128.66	55.48	8.16	7.64	32.87	138.07	44.34	82.85	61.73	3.43
	5896.65	5861.02	-158.31	120.49	0.06	8.16	8.78	21.75	141.25	75.76	82.89	61.76	35.38
	5896.9	5861.92	-250.6	123.13	2.69	7.32	8.4	3.25	124.16	37.9	82.95	62.05	290.88
	5897.04	5862.72	-476.1	129.04	18.16	8.39	8.6	3.78	125.09	73.64	82.97	62.11	322.03
	5897.04	5862.77	-271.07	126.17	24.12	7.6	6.71	62.4	129.22	35.29	83	62.14	177.44
	5897.35	5863.4	-646.15	128.48	75.41	8.38	8.02	66.44	134.32	8.86	83.14	62.25	176.73
	5898.72	5863.45	-953.62	126.94	34.02	7.39	6.47	57.6	129.71	4.51	83.24	62.29	385.33
	5898.78	5865.75	-503.41	129.47	78.12	7.05	8.6	13.22	121.43	43.23	83.39	62.34	3.19
	5898.82	5866.26	-408.86	130.41	2.52	6.92	8.58	54.78	139.78	19.35	83.42	62.36	399.09
	5899.05	5867.73	19.17	128.24	72.82	7.42	9	8.88	130.44	75.36	83.46	62.36	386.3
	5900.4	5868.05	-769.29	127.67	53.3	7.55	8.83	52.86	125.42	48	83.57	62.4	43.13
	5901.73	5868.25	-331.08	121.9	70.49	8.51	6.93	61.27	139.29	28.45	83.61	62.44	170.18
	5901.76	5869.14	-678.72	122.02	61.11	7.68	8.67	57.32	142.65	45.98	83.64	62.54	357.41
	5901.87	5869.18	-596.01	122.46	26.32	7.02	8.59	31.69	139.52	71.29	83.64	62.71	385.59
	5902.08	5870.9	-556.78	130.2	22.98	8.55	8.9	45.03	126.51	56.56	83.66	62.72	142.24
	5902.34	5871.54	-392.98	126.2	74.14	7.97	7.84	29.21	122.24	71.39	83.72	62.74	134.16
	5902.75	5871.62	8.25	122.06	41.9	7.62	8.02	57.42	129.02	51.53	83.72	62.77	22.81
	5902.95	5871.71	-860.98	129.08	16.09	7.32	8.61	66.22	134.31	65.83	83.74	62.82	377.93
	5903.72	5871.79	-289.78	127.41	4.1	6.91	7.07	5.67	125.47	43.39	83.86	62.85	173.31
	5903.94	5872.02	-600.86	129.99	55.27	7.41	8.67	24.18	136.5	66.51	83.95	62.86	174.22
	5905.33	5872.57	-6.04	120.41	41.82	7.42	6.5	29.24	125.23	11.9	83.97	62.95	135.11
	5905.74	5873.69	-801.48	125.87	31.82	8.04	7.47	32.93	139.78	9.7	84.07	63.03	184.63
	5905.78	5873.78	-690.94	129.35	55.54	7.58	7.28	50.1	130.35	49.27	84.09	63.03	207.03
	5906.72	5873.89	-369.76	125.76	29.47	8.32	7.81	14.13	128.61	33.28	84.11	63.27	19.76
	5906.79	5874.57	98.96	124.19	60.95	8.25	7.16	8.13	127.28	51.23	84.14	63.31	401.56
	5906.92	5874.78	-539.25	123.77	29.65	7.3	8.11	52.46	133.51	21.43	84.14	63.55	231.22
	5907.9	5875.15	-282.27	127.25	56.79	8.3	7.7	68.33	139.03	76.68	84.15	63.65	284.55
	5909.27	5876.17	-194.45	122.84	32.87	8.26	7.87	42.19	128.65	43.76	84.2	63.69	6.41
	5909.5	5877.26	-405.83	127.43	2.75	7.88	8.69	38.48	123.87	48.31	84.23	63.95	64.47
	5910.03	5877.85	-700.48	126.64	10.53	7.53	7.31	64.31	125.16	44.78	84.24	63.96	188.15
	5910.38	5877.91	83.82	121.6	17.3	7.56	7.25	15.93	126.89	68.39	84.27	64.11	151.83
	5910.53	5877.98	-626.32	124.19	13.35	7.42	8.74	29.31	131.13	64.28	84.37	64.13	15.94
	5910.69	5878.38	-436.08	121.47	6.33	8.13	8.05	24.67	124.5	68.71	84.38	64.7	323.89
	5911.08	5879.04	-351.67	124.61	64.4	8.49	7.16	26.49	130.52	73.97	84.4	64.75	6.95
	5912.7	5879.56	-858.8	124.1	42.77	7.24	6.82	3.57	132.5	19.89	84.46	64.76	47.1
	5913.28	5879.76	-298.02	130.74	60.53	7.91	8.73	33.22	131.43	77.35	84.46	64.84	129.81
	5913.95	5880.18	101.25	120.98	40.05	6.91	7.54	39.59	134.15	70.03	84.5	64.84	53.13
	5914.66	5880.46	-682.95	127.04	62.46	8.54	7.13	16.76	124.51	45.23	84.5	64.86	205.62
	5915.75	5882.11	-763.28	129.58	7.87	7.44	7.58	30.97	139.44	60.79	84.71	64.92	175.02
	5915.86	5882.14	-22.99	123.75	78.23	7.39	8.4	66.62	138.15	61.47	84.73	65.02	62.58
	5916.54	5884.02	-363.11	120.48	27.72	7.79	6.69	26.94	138.85	63.64	84.78	65.14	181.32
	5917.61	5884.27	-864.16	121.04	71.21	7.46	8.63	53.36	135.51	57.64	84.86	65.31	171.65
	5917.81	5884.72	-622.54	125.18	71.3	7.95	6.74	33.9	133.32	15.45	84.92	65.31	388.12
	5918.04	5885.07	-38.1	121.45	52.74	7.6	8.71	9.31	125.48	7.76	84.94	65.39	38.67
	5918.28	5886.31	5.4	129.55	20.05	8.28	7.87	46.4	125.88	11.74	84.95	65.46	175.25
	5919.04	5886.65	-443.25	126	42.88	8.3	6.77	64.28	122.94	58.1	84.98	65.52	152.87
	5920.07	5887.73	-299.56	125.07	70.07	7.35	8.06	39.96	129.58	58.16	85.05	65.69	386.99
	5920.26	5887.85	6.59	123.75	41.15	7.07	8.99	22.98	140.01	74.68	85.08	65.71	322.75
	5920.61	5888.14	-399.51	124.49	58.01	7.48	7.02	54.55	130.15	18.85	85.12	65.76	359.35
	5920.63	5888.21	-774.44	129.56	32.54	8.53	7.08	33.17	121.1	6.33	85.16	65.77	257.8
	5921.17	5888.6	-213.03	126.12	32.19	8.1	8.9	51.4	130.85	35.81	85.17	65.78	401.54
	5921.58	5890	-99.1	129.2	46.31	8.32	6.6	39.29	136.52	0.41	85.2	65.83	295.21
	5922.01	5890.53	-533.32	120.6	0.41	7.83	8.82	45.49	139.13	28.11	85.27	65.99	179.16
	5922.54	5890.59	97.88	127.37	28.4	7.68	7.14	25.01	136.64	77.56	85.3	65.99	211.65
	5923.12	5890.88	-645.72	129.18	3.94	7.21	8.86	47.34	141.46	34.37	85.37	66.27	94.44
	5924.61	5892.36	-934.39	130.88	63.23	8.48	7.06	44.53	142.14	47.24	85.41	66.8	398.26
	5925.3	5893.07	-322.4	127.98	73.88	7.73	7.33	33.51	124.65	22.66	85.44	66.9	363.95
	5925.91	5893.32	-135.55	126.74	3.15	7.37	9.05	66.03	142.53	73.65	85.52	66.97	88.17
	5926.17	5893.96	-554.11	130.85	0.82	7.55	7.66	59.26	129.9	51.68	85.55	67.01	57.58
	5926.64	5894.47	-560.17	125.83	8.54	8.13	7.85	31.91	136.96	73.33	85.56	67.4	203.4
	5927.27	5894.84	-97.75	120.26	49.19	7.11	8.6	67.64	130.37	16.8	85.58	67.53	49.92
	5927.36	5895.09	-885.18	123.69	27.49	6.97	6.68	18.61	124.65	48.3	86.05	67.68	379
	5927.84	5895.71	-168.75	123.34	1.47	7.84	8.54	12.47	130.92	51.36	86.15	67.9	3.34
	5928.07	5895.83	36.22	128.52	51.54	8.21	8.96	57.74	125.16	57.12	86.15	67.96	151.89
	5928.46	5895.86	-669.93	126.33	27.41	7.66	8.54	23.89	136.63	2.48	86.16	68.13	6.37
	5928.54	5895.97	-972.76	121.86	46.13	7.84	7.41	35.11	130.73	28.68	86.26	68.18	209.11
	5928.85	5897.29	-720.98	124.08	11.22	6.94	7.42	65.06	128.97	51.74	86.34	68.59	360.64
	5929.07	5897.46	-951.89	128.24	20.97	7.09	8.47	61.79	134.55	68.33	86.35	68.79	21.92
	5929.34	5897.74	28.59	129.84	68.49	8.45	8.59	33.66	130.31	3.33	86.37	68.81	183.2
	5929.7	5898.71	-975.05	126.71	2.06	7.66	8.27	27.16	125.44	35.59	86.39	68.87	120.59
	5929.9	5899.2	-507.89	127.29	2.17	7.23	6.98	64.48	124.74	30.83	86.48	69	8.01
	5930.37	5899.31	25.32	125.57	69.47	7.19	7.93	57.23	135.24	53.31	86.5	69.11	138.86
	5930.67	5899.41	-982.47	130.1	14.42	7.59	6.48	50.58	135.88	19.92	86.5	69.46	125.79
	5932.48	5899.85	-956.45	124.12	45.85	7.9	8.07	22.96	124.64	21.13	86.52	69.5	69.59
	5932.8	5899.94	-599.59	122.11	82.12	7.82	6.86	45.03	121.85	74.87	86.58	69.5	182.09
	5933.45	5900.02	-691.18	121.2	67.38	7.09	8.64	12.34	137.41	68.07	86.6	69.51	54.15
	5933.68	5900.36	2.58	120.94	7.4	7.29	7.81	12.23	127.64	70.45	86.69	69.52	233.54
	5936.33	5901.28	96.95	128.76	69.17	8.32	6.53	29.43	134.53	56.62	86.75	69.55	108.47
	5937	5902.38	-206.48	129.81	66.4	7.77	8.74	26.26	122.73	29.7	86.79	69.58	318.81
	5937.33	5902.9	-440.2	120.29	5.19	7.45	7.52	40.81	126.37	55.25	86.82	69.65	241.98
	5937.74	5903.53	31.69	124.69	45.76	8.49	8.27	40.4	138.04	65.29	86.83	69.84	216.46
	5937.79	5903.79	-589.99	128.19	54.93	7.22	8.92	30.55	138.33	19.49	86.92	69.87	350.9
	5937.79	5904.29	-964.72	126.18	3.32	8.12	7.34	44.06	140.15	20.8	86.93	69.99	328.42
	5938.19	5905.64	-839.98	127.99	71.55	7.45	6.74	41.17	129.29	57.4	86.93	70.17	77.11
	5938.35	5905.88	92.61	128.6	70.75	8.07	7.99	51.44	124.64	40.65	86.95	70.44	366.09
