#---
# File created using
#---

~Version
 VERS.                  3.0   : LAS Version Identifier
 WRAP.                   NO   : WRAP mode - one line per depth step
 DLM .                  TAB   : Column Data Section Delimiter

~Well
 STRT.ft               6600.0   : First index value       {F}
 STOP.ft              15120.0   : Last index value        {F}
 STEP.ft                  0.25   : STEP of index
 NULL.              -999.25   : NULL value

 SDATE. 27/Jul/2023 10;01;02   : Data Start Date        {DD/MMM/YYYY hh;mm;ss}
 EDATE. 03/Aug/2023 04;26;04   : Data End Date        {DD/MMM/YYYY hh;mm;ss}
 SDEPTH.ft               6600.0   : Data Start Depth        {F}
 EDEPTH.ft             15120.00   : Data End Depth        {F}

 API.       11-222-33333   : API Number
 CNTY.                  Noy   : County
 COMP.      XYZ Company, Inc   : Oil Company
 COMP_REP.           Noy Becker   : Client Rig-Site Representative
 CTRY.                  USA   : Country
 DRL_CO.   Noy Energy Partners   : Dir. Company
 LATI.deg          28.8457844   : Latitude
 LATIY.            683250.88   : Y (Northing)
 LONG.deg        -108.63462414   : Longitude
 LONGX.            834582.27   : X (Easting)
 RIG.        RIG 486   : Rig Name
 RIG_EEL.ft               4681.0   : Rig Floor Elevation
 RIG_RDF.ft                   28   : RKB to Ground
 SRVC.    Noy Technologies LLC   : Service Company
 STAT.           Louisiana   : State
 TIME.           US/Central   : Local Time Zone
 WELL. Thunder well 128W   : Well Name

#---
# The following 6 missing fields
#---
 FLD.                        : Field
 LOC.                        : Location
 DATE.                        : Service Date        {DD/MMM/YYYY hh;mm;ss}
 GDAT.                        : Geodetic Datum
 UWI.                        : Unique Well Identifier
 PROV.                        : Province


~Parameter
#MNEM.UNIT              Value                              Description
#---------  ----------------------------------------   -----------------------------------
RUN .                                         1  : Run number
GL  .Ft                             1363.000000  : Ground level elevation
DREF.                                        KB  : Depth reference

~Curve
 DEPT.ft                        : Measured Depth. {F}
 TVD.ft                        : MWD field TVD     {F}
 GAMA.API                        : MWD field GAMA     {F}
 TEMP.F                        : MWD field TEMP     {F}
 SLD.RPM                        : MWD field SLIDE     {F}
 INC.deg                        : MWD field INC     {F}
 DINC.deg                        : MWD field LINC     {F}
 ARPM.RPM                        : MWD field ARPM     {F}
 DRPM.RPM                        : MWD field DRPM     {F}
 SRPM.RPM                        : MWD field RPM.W     {F}
 LAZM.deg                        : MWD field LAZM     {F}
 AZM.deg                        : MWD field AZM     {F}
 ROP.ft/hr                        : MWD field ROP     {F}

~Ascii
# ...
	5938.76	5906.31	-531.63	127.12	9.16	8.37	7.52	35.63	139.76	29.47	86.96	70.51	398.57
	5938.84	5906.47	-705.78	122.52	2.76	7.22	6.52	56.55	125.15	48.75	87.01	70.75	102.66
	5939.94	5906.56	-641.32	130.47	9.88	8.16	8.89	17.57	130.42	0.63	87.08	70.77	128.27
	5941.04	5906.78	-813.21	123.83	17.45	8.22	8.17	66.6	136.47	43.93	87.16	71.39	284.23
	5941.33	5906.85	-184.62	120.55	69.42	7.99	7.23	30.55	126.32	68.19	87.22	71.56	130.05
	5941.35	5907	-396.65	122.58	78.65	7.55	7.97	2.03	126.72	56.82	87.27	71.7	43.21
	5941.79	5907.91	-707.75	120.37	78.2	7.73	8.72	29.79	142.03	49.06	87.28	71.79	126.43
	5942.27	5908.44	-835.57	124.94	44.47	7.44	7.86	51.36	139.62	79.88	87.33	72.25	71.48
	5942.53	5908.54	55.74	124.62	35.82	7.2	7.13	60.87	128.6	80.31	87.35	72.4	393.47
	5942.93	5909.28	-712.44	120.22	56.38	8.27	7.65	11.67	137.26	6.2	87.41	72.42	68.01
	5943.02	5909.46	-198.46	130.49	67.62	8.43	8.65	10.72	134.28	28.06	87.43	72.55	10.46
	5943.27	5909.46	-187.9	125.86	32.98	8.42	7.97	6.88	133.65	9.79	87.46	72.56	270.36
	5943.75	5910.02	-366.82	130.85	78.49	7.95	6.98	34.58	127.1	0.74	87.48	72.96	86.49
	5945.2	5910.64	-848.12	129.48	81.33	7.02	7.44	37.62	121.1	7.16	87.52	73	81.61
	5945.33	5911.25	-724.09	129.86	80.34	7.85	7.13	0.79	131.11	69.31	87.64	73.08	197.28
	5945.42	5911.27	-186.34	127.45	21.29	7.08	8.53	21.65	133.92	72.7	87.75	73.25	75.36
	5946.08	5911.58	-314.29	128.09	7.41	8.16	7.86	63.62	121.35	0.63	87.76	73.29	178.76
	5946.51	5911.74	-971.63	125.89	25.39	8.03	7.67	59.49	128.02	51.37	87.79	73.56	155.3
	5946.89	5912.2	-402.43	120.66	2.35	7.43	6.49	19.62	138.02	30.02	87.89	73.65	292.2
	5947.9	5912.24	-468.75	129.01	78.99	6.99	6.73	60.53	128.14	8.91	87.9	73.65	85.06
	5948.05	5913.72	-901.84	128.3	26.84	7.56	8.95	52.75	121.35	35.5	87.96	73.79	14.57
	5948.07	5914.33	-313.72	128.88	31.34	8.32	8.33	42.1	139.64	15.54	88.04	73.87	319.65
	5948.86	5914.64	-720.96	129.05	36.11	7.29	8.82	65.18	131.92	31.86	88.16	73.91	30.73
	5950.43	5914.94	-750.49	125.18	55.41	7.21	8.15	54.05	136.1	31.14	88.17	73.97	74.77
	5950.89	5915.01	-417.66	124.86	12.31	7.98	6.73	43.04	121.47	57.87	88.31	74.04	354.3
	5952.61	5915.4	-66.78	129.66	59.81	6.94	7.26	66.16	133.2	51.47	88.32	74.1	335.3
	5955.22	5916.31	-398.61	122.33	19.98	7.18	8.2	2.76	128.86	30.03	88.33	74.13	205.75
	5955.56	5916.92	-711.68	124.54	32.54	7.88	8.06	31.51	131.14	54.29	88.34	74.17	209.07
	5955.96	5917.06	-759.91	123.05	51.43	7.36	8.77	2.7	129.88	52.44	88.65	74.23	292.71
	5955.99	5917.21	-176.6	127.4	26.57	7.29	8.41	30.34	131.55	11.81	88.66	74.43	42.49
	5956.89	5919.31	-682.85	121.06	80.01	7.6	7.55	55.9	138.99	47.22	88.67	74.61	115.58
	5956.9	5919.53	-255.05	129.73	22.76	7.74	7.82	17.35	136.23	45.64	88.67	74.76	283.11
	5957.04	5920.08	-325.83	123.11	50.43	7.68	8.32	51.79	135.08	18.87	88.72	74.95	239.33
	5959	5920.22	-289.1	130.04	40.16	8.47	6.88	65.03	134.62	32.11	88.73	75.06	233.3
	5960.01	5921.7	-604.42	127.26	5.06	7.46	7.64	65.75	125.51	36.05	88.74	75.11	299.72
	5960.23	5922.09	-271.16	125.28	74.23	7.09	7.54	9.51	128.45	25.07	88.77	75.2	202.57
	5961.24	5922.51	-878.11	124.26	15.26	6.99	7.3	64.97	138.49	13.21	88.82	75.48	119.72
	5961.96	5922.88	-742.62	127.23	49.53	7.97	8.33	24.64	132.75	81.84	88.84	75.49	140.1
	5962.94	5923.45	-464.39	123.87	10.08	7.62	7.1	64.43	136.15	2.1	88.85	75.49	297.13
	5963.33	5924.01	-487.87	120.31	10.69	7.67	8.23	7.2	129.71	75.68	88.92	75.69	360.56
	5964.11	5924.12	-140.68	127.7	39.99	7.96	8.79	7.38	125.98	62.17	89.03	75.85	216.35
	5964.24	5925.06	-928.86	126.56	20.69	7.43	6.6	46.76	127.06	59.13	89.15	76.02	255.86
	5966.18	5925.96	-266.96	124.72	57.3	7.69	7.76	9.79	140.15	67.39	89.16	76.03	75.81
	5966.55	5926.2	-150.19	121.03	15.65	8.17	8.35	17.62	138.49	53.22	89.16	76.22	17.62
	5967.28	5928.1	-345.05	121.72	20.51	8.49	8.78	58.02	126.34	32.74	89.17	76.27	36.13
	5968.05	5931.11	-208.41	128.57	29.1	8.52	6.46	64.72	123.36	81.91	89.3	76.28	348.86
	5968.06	5931.27	-792.12	123.17	44.02	7.94	7.38	0.37	124.62	13.39	89.55	76.43	73.72
	5968.19	5931.51	-561.08	127.22	38.93	7.73	7.67	58.83	123.46	68.85	89.69	76.53	168.78
	5968.24	5932.05	60.34	123.88	9.95	6.98	8.5	30.19	142.59	72.51	89.76	76.6	113.37
	5969	5933.04	-97.76	126.69	25.49	6.98	6.79	11.98	138.58	62.11	89.8	76.81	64.25
	5969.22	5933.24	-236.75	123.58	31.67	7.74	8.86	55.33	142.26	65.41	89.82	76.87	184.86
	5969.47	5935.56	-870.98	130.39	16.58	8.1	6.47	55.29	141.24	78.19	89.84	76.96	47.36
	5969.64	5935.62	-78.69	129.96	6.68	8.32	7.03	4.05	124.14	8.23	89.96	77.11	361.61
	5969.92	5936.05	-346.12	120.41	11.97	8.49	6.82	62.45	140.58	10.39	89.98	77.21	40.21
	5970.36	5936.24	-968.32	121.75	50.63	8.09	7.73	11.58	121.92	8.7	90.21	77.34	114.35
	5970.71	5936.4	-177.91	124.7	16	7.18	8.56	58.36	139.16	36.79	90.26	77.34	83.59
	5971.19	5937.29	-959.38	123.37	58.14	7.61	8.78	45.85	137.43	71.02	90.26	77.36	330.14
	5972.89	5937.55	-994.05	129.3	11.35	7.13	7.4	11.84	126.97	53.13	90.27	77.49	105.66
	5972.92	5937.8	-42.01	121.3	81.74	8.19	8.46	29.3	130.67	13.33	90.33	77.6	33.04
	5972.95	5938.16	-765.02	129.84	81.5	8.28	7.02	5.94	134.27	36.31	90.39	77.75	364.31
	5973.99	5939.08	-603.44	121.12	30.99	8.3	7.62	34.25	142.03	16.29	90.4	77.95	375.99
	5974.8	5939.44	-184.72	120.32	27.18	8.21	7.86	30.88	122.52	32.81	90.44	78.02	80.06
	5975.85	5939.46	-758.98	126.4	22.34	7.22	7.02	60.16	123.43	37.82	90.5	78.06	76.74
	5978.2	5939.7	-408.82	120.53	38.39	8.39	7.96	27.13	131.8	56.92	90.54	78.98	353.06
	5978.48	5939.79	20.45	120.31	46.65	8.03	7.97	30.63	130.46	12.88	90.56	79.04	29.57
	5979.33	5940.11	-695.68	129.47	38.16	8.51	7.19	66.87	122.69	39.6	90.6	79.06	9.92
	5980.54	5940.12	-558.78	127.53	65.85	7.68	7.44	57.36	129.46	34.95	90.62	79.07	279.59
	5980.55	5940.16	-541.1	124.5	31.62	7.27	6.54	57.3	133.75	50.85	90.65	79.15	10.44
	5980.9	5940.16	-338.16	130.45	42.86	7.41	7.36	64.64	127.82	29.11	90.75	79.34	339.18
	5981.01	5940.35	-600.83	128.35	29.93	7.76	8.06	60.42	127.57	46.83	90.76	79.46	344.83
	5981.57	5941.01	-554.41	125.9	25.87	7.04	7.29	64.59	133.09	6.9	90.86	79.6	271.64
	5981.77	5941.5	-39.01	120.92	67.12	8.08	7.49	9.67	128.39	14.85	90.9	79.81	81.76
	5981.92	5941.93	-782.12	129.36	21.18	7.88	7.74	2.04	140.25	40.6	91.04	79.85	377.53
	5982.09	5942.27	-941.32	122.1	81.16	8.05	8.42	67.41	123.65	27.56	91.23	79.97	25.96
	5982.43	5943.15	-218.57	123.11	33.92	7.83	8.4	61.47	132.48	75.25	91.36	80.08	163.11
	5982.48	5943.27	-346.13	121.07	66.39	7.96	8.13	53.54	129.14	44.99	91.39	80.08	137.32
	5982.61	5944.16	-41.04	127.8	8.34	7.41	7.48	43.67	121.81	29.13	91.43	80.49	267.99
	5983.07	5946.66	-221.84	126.23	68.51	7.81	7.62	62.21	132.26	29.25	91.46	80.56	29.29
	5984.55	5947.3	-179.07	125.66	6.25	8.23	8.25	46.6	143.08	38.08	91.46	80.65	242.98
	5984.79	5948.12	-619.94	127.7	65.78	7.27	8.75	46.87	127.39	28.9	91.47	80.85	323.4
	5984.84	5948.45	-135.86	124.65	0.96	8.25	7.01	46.77	120.85	45.03	91.61	81.07	128.78
	5985.33	5950.23	-593.97	126.07	19.62	7.02	7.22	56.5	126.2	36.57	91.67	81.11	389.43
	5986.3	5950.46	-874.46	129.44	17.35	7.29	8.21	25.13	139.95	20.13	91.72	81.38	305.59
	5986.85	5951.52	-664.37	125.36	30.27	7.23	7.53	52.95	124.43	12.65	91.76	81.45	156.66
	5987.89	5951.79	-165.08	125.16	47.39	7.08	8.33	7.18	140.03	1.77	91.79	81.57	206.5
	5988.8	5951.89	-820.8	130.03	63.18	7.81	8.42	37.73	133.96	0.09	91.83	81.57	49.94
	5988.92	5952.36	-549.99	121.16	71.76	8.13	6.47	20.06	139.64	21.77	91.88	81.58	220.48
	5989.41	5952.42	-97.8	120.29	81.63	8.28	7.96	63.29	123.06	24.31	91.95	81.86	276.65
	5989.87	5952.8	-279.61	123.37	72.18	7.84	7.74	50.33	131.37	27.81	92	82.02	210.14
	5989.9	5952.96	-757.23	125.99	32.23	8.1	7.36	44.84	126.49	27.9	92.05	82.19	81.25
	5990.33	5953.15	-782.19	123.12	32.93	7.09	7	57.3	139.98	45.21	92.07	82.47	120.62
	5990.96	5953.2	-897.02	120.67	29.43	8.51	6.68	50.23	123.01	38.57	92.07	82.58	271.76
	5991.59	5953.79	-9.35	121.68	47.05	7.07	8.61	11.97	128.68	69.88	92.07	82.59	107.82
	5992.2	5954.03	-814.72	121.22	35.9	8.48	8.25	19.75	126.99	68.26	92.08	82.63	202.96
	5993.02	5954.45	-886.09	125.15	74.46	8.39	6.86	61.85	130.59	21.12	92.08	82.74	262.43
	5993.74	5954.57	-145.33	127.6	33.44	7.76	8.47	20.93	134.03	5.82	92.17	82.85	125.97
