#---
# File created using
#---

~Version
 VERS.                  3.0   : LAS Version Identifier
 WRAP.                   NO   : WRAP mode - one line per depth step
 DLM .                  TAB   : Column Data Section Delimiter

~Well
 STRT.ft               6600.0   : First index value       {F}
 STOP.ft              15120.0   : Last index value        {F}
 STEP.ft                  0.25   : STEP of index
 NULL.              -999.25   : NULL value

 SDATE. 27/Jul/2023 10;01;02   : Data Start Date        {DD/MMM/YYYY hh;mm;ss}
 EDATE. 03/Aug/2023 04;26;04   : Data End Date        {DD/MMM/YYYY hh;mm;ss}
 SDEPTH.ft               6600.0   : Data Start Depth        {F}
 EDEPTH.ft             15120.00   : Data End Depth        {F}

 API.       11-222-33333   : API Number
 CNTY.                  Noy   : County
 COMP.      XYZ Company, Inc   : Oil Company
 COMP_REP.           Noy Becker   : Client Rig-Site Representative
 CTRY.                  USA   : Country
 DRL_CO.   Noy Energy Partners   : Dir. Company
 LATI.deg          28.8457844   : Latitude
 LATIY.            683250.88   : Y (Northing)
 LONG.deg        -108.63462414   : Longitude
 LONGX.            834582.27   : X (Easting)
 RIG.        RIG 486   : Rig Name
 RIG_EEL.ft               4681.0   : Rig Floor Elevation
 RIG_RDF.ft                   28   : RKB to Ground
 SRVC.    Noy Technologies LLC   : Service Company
 STAT.           Louisiana   : State
 TIME.           US/Central   : Local Time Zone
 WELL. Thunder well 128W   : Well Name

#---
# The following 6 missing fields
#---
 FLD.                        : Field
 LOC.                        : Location
 DATE.                        : Service Date        {DD/MMM/YYYY hh;mm;ss}
 GDAT.                        : Geodetic Datum
 UWI.                        : Unique Well Identifier
 PROV.                        : Province


~Parameter
#MNEM.UNIT              Value                              Description
#---------  ----------------------------------------   -----------------------------------
RUN .                                         1  : Run number
GL  .Ft                             1363.000000  : Ground level elevation
DREF.                                        KB  : Depth reference

~Curve
 DEPT.ft                        : Measured Depth. {F}
 TVD.ft                        : MWD field TVD     {F}
 GAMA.API                        : MWD field GAMA     {F}
 TEMP.F                        : MWD field TEMP     {F}
 SLD.RPM                        : MWD field SLIDE     {F}
 INC.deg                        : MWD field INC     {F}
 DINC.deg                        : MWD field LINC     {F}
 ARPM.RPM                        : MWD field ARPM     {F}
 DRPM.RPM                        : MWD field DRPM     {F}
 SRPM.RPM                        : MWD field RPM.W     {F}
 LAZM.deg                        : MWD field LAZM     {F}
 AZM.deg                        : MWD field AZM     {F}
 ROP.ft/hr                        : MWD field ROP     {F}

~Ascii
	5800.41	5766.69	-903.18	130.1	29.57	8.06	8.26	51.02	133.54	48.02	71.63	34.83	367.62
	5800.49	5766.99	-130.19	122.38	9.56	7.43	8.29	38.59	133.71	6.72	71.63	35.15	254.06
	5800.84	5767.16	-6.37	122.7	31.46	7.71	8.12	36.89	136.85	43.19	71.64	35.33	94.87
	5800.89	5767.64	-51.22	125.38	19.37	6.95	8.41	64.74	142.41	59.45	71.67	35.53	134.94
	5801.16	5767.67	-395.23	124.69	12.68	8.48	7.71	35.31	135.1	20.45	71.69	36.02	374.15
	5801.18	5768.04	-885.43	127.47	53.68	8.2	7.03	16.6	129.05	18.12	71.73	36.07	374.53
	5802.03	5768.41	-282.72	124.52	21.4	8.23	6.65	54.56	128.96	29.57	71.78	36.28	62.06
	5802.07	5768.62	-995.23	130.46	39.67	7.54	8.28	40.02	142.76	56.32	71.92	36.45	76.83
	5802.18	5769.96	-28.62	122.89	23.28	8.24	7.43	37.64	122.82	24.37	71.96	36.7	12.78
	5802.63	5770.3	-715.05	126.93	27.39	7.29	7.33	30.59	141.78	5.72	72.06	36.74	249.52
	5803.2	5771.08	-397.23	130.59	5.71	7.08	6.78	25.71	131.68	19.37	72.26	36.99	104.59
	5803.55	5771.19	33.25	130.21	0.69	7.87	6.55	20.53	139.1	72.28	72.26	37.25	382.04
	5805.11	5771.77	-832.72	122.66	26.47	8.29	7.43	31.44	120.75	59.6	72.28	37.34	387.13
	5805.99	5771.87	-724.17	129.28	74.95	6.92	7.56	45.14	125.24	6.14	72.31	37.5	193.69
	5806.44	5772.77	-937.32	125.93	53.54	7.88	7.15	51.91	126.93	52.5	72.33	37.84	209.72
	5810.77	5774	-738.93	129.13	77.16	6.96	8.19	31.83	123.73	7.87	72.38	37.84	171.16
	5811.23	5774.01	-470.75	126.21	55.89	7.78	7.34	31.32	127.03	38.68	72.42	37.89	60.42
	5811.62	5774.8	-998.51	125.35	16.48	8.23	8.64	15.7	135.1	6.97	72.53	37.94	7.51
	5812.35	5775.01	-840.73	130.83	71.57	8.41	8.68	26.74	141.69	54.17	72.56	38.08	358.25
	5812.35	5775.21	-315.86	122.21	54.26	7.06	7.18	12.42	139.13	73.67	72.56	38.23	18.28
	5812.58	5776.68	-635.02	123.56	16.83	8.54	7.83	35.93	130.21	65.98	72.58	38.27	342.94
	5812.77	5777.39	-852.26	127.13	0.58	7.34	7.81	51.49	136.52	25.77	72.66	38.28	328.92
	5813.17	5777.55	-900.26	128.51	36.49	7.86	6.99	65.24	127.16	57.36	72.68	38.32	228.77
	5813.23	5777.94	-696.45	122.43	56.73	8.59	7.98	2.89	141.58	55.71	72.74	38.38	248.2
	5813.32	5778.27	-933.05	128.52	68.79	7.94	8.77	7.2	122.97	29.12	72.75	38.41	115.21
	5813.96	5779.24	-587.48	122.98	53.6	7.96	8.03	10.72	126.25	1.08	72.86	38.43	67.98
	5815.29	5781.82	-653.74	127	63.46	8.28	8.58	8.99	122.74	40.86	72.89	38.64	396.7
	5815.41	5783.6	-580.99	127.59	49.37	7.81	7.75	13.66	131.63	60.06	72.98	38.66	192.85
	5815.62	5784	44.57	130.72	80.87	7.95	7.38	56.28	120.99	8.26	72.99	38.77	213.75
	5816.33	5784.06	-719.27	125.33	16.27	7.12	8.67	4.8	130.19	38.94	73.01	38.8	272.93
	5816.57	5784.11	-966.03	128.55	36.57	8.32	6.46	25.29	141.23	49.8	73.15	39.22	338.49
	5817.44	5784.71	83.06	121.2	21.43	8.13	6.85	20.29	133.47	19.44	73.23	39.25	303.96
	5817.73	5784.88	-759.91	128.47	39.58	7.74	7.61	46.06	132.73	45.8	73.28	39.46	276.07
	5818.36	5785.07	-798.72	125.11	25.35	7.58	7.56	53.12	134.71	21.89	73.29	39.47	51.71
	5818.77	5785.08	-947.61	121.79	37.34	7.53	7.85	47.07	131.54	18.24	73.33	39.7	374.65
	5819.07	5785.88	-931.11	126.9	48.86	6.94	7.93	36.5	137.41	34.13	73.34	39.97	321.26
	5819.14	5786.29	-701.97	127.02	45.21	8.2	8.66	21.73	124.92	32.5	73.36	40.07	101.83
	5819.56	5786.96	-656.32	124.49	22.28	8.41	6.49	61.99	121.89	47.97	73.36	40.15	58.11
	5819.64	5787.07	-588.85	120.77	76.05	7.43	8.12	30.01	138.14	73.62	73.43	40.15	165.32
	5819.87	5788.1	-914.28	129.08	33.16	7.71	6.69	36.17	142.77	28.16	73.45	40.21	42.85
	5820.08	5788.84	107.94	125.28	31.29	7.68	8.5	1.76	128.88	36.84	73.54	40.52	18.35
	5820.11	5788.99	-645.82	123.88	78.63	7.19	8.17	66.53	135.52	77.35	73.55	40.64	92.55
	5820.41	5790.12	-73.53	124.76	5.02	7.81	7.53	43.47	141.77	76.46	73.68	40.75	96.76
	5820.99	5790.21	-880.85	129.39	71.05	7.16	7.71	54.95	129.68	56.85	73.69	40.79	63.81
	5822.35	5790.26	-814.44	127.26	22.32	7.13	7.37	22.49	129.83	65.02	73.7	40.94	270.12
	5823.75	5790.4	-234.67	123.27	64.95	7.45	8.43	33.78	136.31	18.86	73.71	41.24	303.41
	5824.09	5790.71	-696.81	123.64	28.42	8.23	6.95	16.66	123.17	67.29	73.83	41.34	391.33
	5824.46	5791.06	-596.77	121.8	77.62	8.05	7.04	28.02	130.35	7.65	73.87	41.47	371.05
	5825.72	5791.31	-998.54	129.34	38.4	8.21	8.77	64.12	140.84	47.83	73.88	41.84	58.67
	5825.93	5791.57	-139.31	124.64	55.27	7.79	7.8	56.49	124.36	20.61	73.91	41.96	312.37
	5826.41	5792.11	-588.75	120.52	39.16	6.9	8.15	34.55	123.31	68.11	74.06	42.06	110.12
	5826.83	5792.78	-412.36	127.54	71.88	8.49	8.57	63.64	142.59	7.93	74.12	42.1	49.93
	5826.96	5792.88	-147.06	128.62	54.33	7.61	8.2	21.09	127.95	3.17	74.26	42.35	119.14
	5827.2	5793.05	1.74	127.29	28.74	7.21	6.72	22.26	130.76	65.68	74.26	42.35	106.17
	5827.32	5794.05	-352.27	129.45	0.28	8.13	8.55	59.47	128.34	22.04	74.31	42.52	199.05
	5827.38	5794.87	-433.89	126.51	67.83	6.92	6.68	9.48	122.39	11.66	74.33	42.72	177.72
	5827.54	5795.54	-588.92	121.06	15.64	8.4	7.98	20.19	134.97	81.58	74.35	42.73	256.97
	5827.79	5795.59	-187.06	130.17	48.64	8.17	7.64	17.8	138.15	53.99	74.42	42.81	98.04
	5827.95	5795.64	-311.86	125.1	35.88	7.13	7.33	14.82	125.38	74.14	74.44	42.85	243.76
	5827.95	5795.91	-268.77	126.49	76.93	7.29	6.59	33.6	126.94	26.16	74.58	43.1	113.34
	5828.27	5796.47	-692.91	127.11	76.33	8.35	7.88	57.06	131.52	39.17	74.63	43.18	148.56
	5828.46	5797.01	-58.06	127.41	24.14	7.79	7.07	43.06	138.2	79.6	74.71	43.21	368.97
	5828.59	5798.91	48.03	129.08	0.21	8.02	8.15	41.83	132.71	58.01	74.78	43.27	73.82
	5830.81	5799.17	-30.97	125.1	52.95	8.1	7.34	46.51	130.91	80.47	74.8	43.62	358.13
	5830.86	5799.23	-387.48	130.04	54.18	6.91	8.15	50.13	136.6	72.47	74.81	43.87	99.25
	5831.53	5799.33	-893.37	123.76	2.92	7.42	8.37	33.96	134.25	47.24	74.89	43.9	336.83
	5831.57	5800.43	-281.15	126.89	6.59	7.98	7.91	39.78	140.58	22.22	74.99	44.18	73.39
	5831.83	5801.37	-343.52	129.34	5.96	8.13	8.21	40.97	142.02	52.8	75.07	44.21	222.86
	5832.17	5801.48	-139.99	126.66	81.15	7.82	6.81	5.96	136.88	64.17	75.09	44.29	148.33
	5832.36	5801.5	-471.15	129.56	42.5	8.4	6.56	52.87	121.83	33.38	75.14	44.67	174.91
	5832.65	5802.54	-99.18	125	76.49	7.97	8.88	57.6	142.95	18.29	75.15	44.75	328.94
	5832.78	5802.61	-622.1	122.42	32.23	8.44	7.68	2.91	138.84	39.34	75.32	44.79	87.52
	5832.93	5802.69	-674.55	129.49	72.04	8.07	7.13	12.96	135.33	37.88	75.34	45.28	36.94
	5833.07	5803.33	-815.73	122.03	38.92	7.99	8.56	33.4	132.73	19.36	75.35	45.4	342.58
	5833.38	5803.37	-393.6	120.86	48.32	8.53	7.25	33.4	139.66	6.62	75.44	45.48	215.13
	5833.65	5804.13	91.18	120.84	26.68	6.94	7.75	28.14	133.23	70.09	75.62	45.65	158.4
	5834.06	5805.32	-490.75	125.5	54.97	7.65	6.94	57.64	135.77	21.61	75.66	45.75	201.81
	5834.2	5805.44	-831.6	122.3	45.42	8.52	8.28	8.87	127.35	51.66	75.67	46.03	44.55
	5835.08	5805.96	-953.23	120.51	5.68	7.99	7.16	63.6	132.16	22.99	75.7	46.06	207.66
	5835.5	5806.51	-202.74	129.06	12.33	8.47	7.13	64.5	122.44	71.73	75.77	46.61	190.81
	5836.02	5807.12	-653.77	128.77	80.89	7.87	8.61	52.87	142.47	69.01	75.88	46.82	336.43
	5837.09	5807.35	69.65	127.32	44.17	7.57	7.38	12.15	132.53	6.47	76	46.83	302.51
	5837.97	5807.67	-340.87	127.5	33.87	7.01	7.87	25.38	129.29	77.36	76.07	46.89	329.89
	5838.2	5808.75	-925.34	124.93	23.28	7.75	7.66	63	142.11	78.11	76.2	46.9	176.8
	5838.27	5809.52	-254.33	124.87	15.5	7.22	7.59	26.96	140.07	50.82	76.22	46.98	36.39
	5838.63	5809.74	-640.42	126.3	80.44	7.88	8.11	52.74	141.44	71.15	76.25	46.98	270.68
	5838.87	5809.85	-54.84	123.03	69.61	8.54	6.61	32.05	120.79	64.95	76.27	47.03	151.07
	5839.02	5810.35	-38.77	123.63	41.84	7.24	6.62	34.4	141.57	79.37	76.31	47.04	267.05
	5840.33	5810.41	-140.35	127.51	35.67	8.03	8.48	8.79	122.24	26.23	76.32	47.05	268.53
	5842.27	5811.24	-716.51	120.62	1.25	8.07	8.91	15.86	139.57	7.86	76.32	47.1	296.35
	5842.64	5813.15	-6.63	125.33	19.95	8.11	7.9	25.67	130.5	10.44	76.43	47.26	25.29
	5843.13	5813.43	-117.38	120.97	21.36	7.24	8.51	28.01	130.96	22.06	76.52	47.27	32.38
	5843.18	5813.57	-291.94	122.32	60.84	6.99	7.28	9.74	134.01	78.83	76.62	47.48	210.45
	5844.01	5813.68	-261.9	123.49	57.13	7.99	6.45	34.57	136.09	34.56	76.67	47.9	291.74
	5844.3	5815	-521.24	125.73	52.87	7.22	7.71	27.63	138.18	70.93	76.69	48	197.2
	5844.33	5815.05	-243.64	130.55	15.01	7.52	7.52	5.61	126.38	26.1	76.76	48.12	101.25
