#---
# File created using
#---

~Version
 VERS.                  3.0   : LAS Version Identifier
 WRAP.                   NO   : WRAP mode - one line per depth step
 DLM .                  TAB   : Column Data Section Delimiter

~Well
 STRT.ft               6600.0   : First index value       {F}
 STOP.ft              15120.0   : Last index value        {F}
 STEP.ft                  0.25   : STEP of index
 NULL.              -999.25   : NULL value

 SDATE. 27/Jul/2023 10;01;02   : Data Start Date        {DD/MMM/YYYY hh;mm;ss}
 EDATE. 03/Aug/2023 04;26;04   : Data End Date        {DD/MMM/YYYY hh;mm;ss}
 SDEPTH.ft               6600.0   : Data Start Depth        {F}
 EDEPTH.ft             15120.00   : Data End Depth        {F}

 API.       11-222-33333   : API Number
 CNTY.                  Noy   : County
 COMP.      XYZ Company, Inc   : Oil Company
 COMP_REP.           Noy Becker   : Client Rig-Site Representative
 CTRY.                  USA   : Country
 DRL_CO.   Noy Energy Partners   : Dir. Company
 LATI.deg          28.8457844   : Latitude
 LATIY.            683250.88   : Y (Northing)
 LONG.deg        -108.63462414   : Longitude
 LONGX.            834582.27   : X (Easting)
 RIG.        RIG 486   : Rig Name
 RIG_EEL.ft               4681.0   : Rig Floor Elevation
 RIG_RDF.ft                   28   : RKB to Ground
 SRVC.    Noy Technologies LLC   : Service Company
 STAT.           Louisiana   : State
 TIME.           US/Central   : Local Time Zone
 WELL. Thunder well 128W   : Well Name

#---
# The following 6 missing fields
#---
 FLD.                        : Field
 LOC.                        : Location
 DATE.                        : Service Date        {DD/MMM/YYYY hh;mm;ss}
 GDAT.                        : Geodetic Datum
 UWI.                        : Unique Well Identifier
 PROV.                        : Province


~Parameter
#MNEM.UNIT              Value                              Description
#---------  ----------------------------------------   -----------------------------------
RUN .                                         1  : Run number
GL  .Ft                             1363.000000  : Ground level elevation
DREF.                                        KB  : Depth reference

~Curve
 DEPT.ft                        : Measured Depth. {F}
 TVD.ft                        : MWD field TVD     {F}
 GAMA.API                        : MWD field GAMA     {F}
 TEMP.F                        : MWD field TEMP     {F}
 SLD.RPM                        : MWD field SLIDE     {F}
 INC.deg                        : MWD field INC     {F}
 DINC.deg                        : MWD field LINC     {F}
 ARPM.RPM                        : MWD field ARPM     {F}
 DRPM.RPM                        : MWD field DRPM     {F}
 SRPM.RPM                        : MWD field RPM.W     {F}
 LAZM.deg                        : MWD field LAZM     {F}
 AZM.deg                        : MWD field AZM     {F}
 ROP.ft/hr                        : MWD field ROP     {F}

~Ascii
# ...
	5994.21	5955.13	62.11	121.43	42.26	7.62	8.78	47.21	131.31	23.56	92.17	82.97	338.62
	5994.4	5955.16	19.05	129.31	7.77	8.59	7.38	21.98	131.93	30.66	92.33	83.42	130.66
	5995.93	5955.99	-209.07	124.62	64.06	8.21	8.99	27.64	125.14	63.81	92.36	83.45	346.26
	5995.95	5956.28	-76.46	123.13	65.66	7.15	6.96	50.8	130.57	72.72	92.42	83.67	43.54
	5995.99	5956.41	-988.83	130.82	50.11	8.09	7.86	7.81	132	43.16	92.47	84	119.23
	5996.1	5957.28	-792.94	126.94	55.04	7.92	7.72	23.03	127.56	14.38	92.47	84.5	129.99
	5996.89	5957.9	-787.34	123.45	64.76	8.27	7.79	46.55	124.39	15.76	92.57	84.57	88.9
	5996.99	5958.05	-158.69	127.27	45.08	7.44	8.31	30.78	140.04	62.31	92.6	84.59	363.06
	5997.13	5959.27	-369.33	123.89	35.99	7.85	7.05	18.75	124.68	60.35	92.67	84.61	382.67
	5997.21	5959.63	-276.91	127.71	39.33	7.93	7.7	15.46	133.9	78.18	92.73	84.74	122.11
	5997.31	5960.36	-592.28	121.24	61	7.24	9.05	49.34	139.73	30.08	92.81	84.77	317.47
	5997.43	5960.44	-68.72	126.85	4.93	7.17	7.26	8.25	132.9	18.68	92.86	84.99	13.12
	5997.72	5962.2	-280.88	123.66	74.33	7.6	7.4	52.14	130.13	10.87	92.89	85	266.44
	5998.39	5962.55	-91.6	126.92	51.61	7.55	8.36	54.07	141.22	20.08	92.97	85.13	383.29
	5998.69	5962.89	-32.12	128.3	43.36	6.99	8.41	22.17	139.75	54.47	92.99	85.22	139.53
	5998.76	5963.07	-463.74	130.17	81.83	7.42	7.19	30.02	133.73	39.41	93.09	85.26	164.48
	5998.93	5963.51	-590.97	124.03	79.93	7.87	7.53	59.72	137.26	67.46	93.12	85.46	228.07
	5998.93	5963.6	-606.78	120.33	14.9	7.27	8.47	52.13	127.73	34.4	93.13	85.6	229.89
	5998.97	5964.98	-217.82	124	51.04	7.84	6.66	60.66	124.37	65.36	93.14	85.64	312.33
	5999	5965.02	-608.95	124.52	82.16	7.56	7.81	2.31	131.37	10.89	93.15	85.78	42.9
	5999.15	5965.38	-947.17	127.72	5.21	7.28	8.72	30.66	133.39	75.57	93.19	86.11	3.17
	5999.29	5965.78	-118.17	120.31	73.13	7.86	7.36	2.64	141.18	62.35	93.22	86.36	58.88
	5999.7	5966.28	100.87	129.74	35.99	7.38	8.96	17.95	139	34.84	93.22	86.45	382.49
	6000.5	5966.68	-651.98	120.46	59.5	8.53	8.95	25.6	127.84	74.2	93.31	86.47	66.12
	6000.98	5966.93	-666.16	128.72	80.39	7.21	8.09	51.91	131.43	77.54	93.35	86.65	322.52
	6001.71	5967.23	0.03	123.95	13.47	7.06	7.66	2.63	143.06	11.84	93.37	86.81	147.05
	6001.89	5967.52	-772.92	126.91	5.25	7.82	7.68	5.85	121.18	12.31	93.42	87.07	126.28
	6002.12	5968.02	-361.07	125.52	81.29	7.45	7.99	44.95	122.86	73.33	93.43	87.24	395.99
	6002.12	5968.29	-653.13	128.95	11.74	8.24	8.62	43.18	134.48	15.52	93.6	87.3	363.62
	6002.14	5968.89	-730.14	128.98	62.16	7.37	8.4	18.14	120.73	18.48	93.62	87.31	295.2
	6002.17	5969.68	-59.53	122.61	32.8	7.39	7.33	36.97	141.23	27.01	93.65	87.36	139
	6002.21	5969.69	-225.32	124.81	45.55	8.21	7.49	65.2	123.68	48.79	93.66	87.36	95.28
	6002.66	5970.01	68.75	125.73	70.82	6.99	7.07	47.26	141.78	22.36	93.72	87.36	230.68
	6003.87	5970.43	-603.51	127.97	1.88	8.45	8.42	0	123.15	66.63	93.77	87.4	241.05
	6003.89	5970.98	-573.24	130.08	79.26	8.5	7.97	42.57	130.87	49.31	93.84	87.43	182.55
	6004.24	5971.12	-321.62	123.42	23.25	7.05	8.67	27.96	126.55	15.85	93.88	87.61	121.12
	6004.76	5972.42	-38.76	120.7	35.18	8.31	6.76	16.1	134.27	22.26	93.94	87.81	14.77
	6006.94	5973.73	-783.61	124.68	27.5	7.68	7.23	56.69	134.27	10.34	93.94	87.85	23.14
	6007.46	5973.99	24.88	130.84	14.9	7.11	8.81	5.02	140.13	39.06	93.97	88.03	323.02
	6007.77	5975.35	-540.13	124.04	3.14	7.55	7.91	43.53	122.09	64.55	94	88.1	296.3
	6008.36	5976.86	-704.07	122.02	46.32	7.03	7.06	11.11	125.81	17.26	94	88.16	93.33
	6009.93	5976.86	-291.19	125.46	7.09	7.46	7.98	48.68	142.32	30.24	94	88.18	164.97
	6010.25	5979.18	-884.84	123.26	40.34	7.69	8.22	63.79	138.4	7.67	94.01	88.32	185.2
	6014.52	5979.57	-478.23	128.92	64.12	7.62	8.93	20.62	130.57	63.03	94.11	88.45	53.39
	6014.63	5979.85	-770.57	129.44	29.91	7.38	8.82	49.83	138.63	31.17	94.12	88.63	104.89
	6014.75	5980.07	-939.07	121.89	36.65	7.35	6.61	39.01	128.65	60.65	94.17	89.18	24.83
	6015.16	5980.83	9.03	127.44	23.06	7.71	8.48	43.55	132.84	6.09	94.54	89.19	262.24
	6016.74	5981.29	-808.57	127.08	77.1	7.65	6.46	39.62	121.95	52.86	94.6	89.2	335.93
	6016.93	5981.35	-634.53	122.54	17.01	7.46	7.73	19.8	135.52	10.58	94.63	89.35	169.52
